{
"type": "FeatureCollection","name": "New Forest pubs", "crs": { "type": "name", "properties": { 
"name": "urn:ogc:def:crs:OGC:1.3:CRS84" 
} },
"features": [

    
{"type":"Feature","properties":{
    "name":"The Gamekeeper", 
    "garden":"Patio garden",
    "parking":"Small carpark",
    "beer":"good beer",
    "dogs":"Dog friendly",
    "hash":"Good trails - paths and, woods",
    "rating":6
 },
    "geometry":{"type":"Point","coordinates":[ -1.539084, 50.905705 ]}
 },
{"type":"Feature","properties":{
    "name":"The Green Dragon,Brook", 
    "garden":"Small garden",
    "parking":"on-street parking",
    "beer":"Decent beer",
    "dogs":"Dog friendly",
    "hash":"Good trails - paths and woods",
    "rating":6
    },
    "geometry":{"type":"Point","coordinates":[ -1.612646, 50.925304 ]}
    },

{ "type": "Feature", "properties": {
    "name": "The Royal Oak",
    "garden":"Big garden",
    "parking":"on-street parking",
    "beer":"Excellent beer",
    "dogs":"",
    "hash":"Good trails - paths and woods",
    "rating":8 
    }, "geometry": { "type": "Point", "coordinates": [ -1.670963, 50.926207  ] } 
    },
{ "type": "Feature", "properties": { 
    "name": "The Fighting Cocks",
    "garden":"Big garden",
    "parking":"Good parking",
    "beer":"Good beer",
    "dogs":"Dog friendly",
    "hash":"Good trails - paths and woods",
    "rating":7 
    }, "geometry": { "type": "Point", "coordinates": [ -1.750667, 50.933835 ] } 
    },
{ "type": "Feature", "properties": { 
    "name": "The Coach and Horses",
    "garden":"Big garden",
    "parking":"Good parking",
    "beer":"Decent beer",
    "dogs":"Dog friendly",
    "hash":"Good trails - paths and woods",
    "rating":7 
    }, "geometry": { "type": "Point", "coordinates": [ -1.573405, 50.918876 ] } 
    },
{ "type": "Feature", "properties": { 
    "name": "The New Forest",
    "garden":"Big garden",
    "parking":"Usually crowded parking",
    "beer":"Decent beer",
    "dogs":"Dog friendly",
    "hash":"Good trails - paths and woods",
    "rating":7 
    }, "geometry": { "type": "Point", "coordinates": [ -1.5271  , 50.890487 ] } 
    },
{ "type": "Feature", "properties": { 
    "name": "The Bold Forester",
    "garden":"Small garden",
    "parking":"Small carpark",
    "beer":"beer: ?",
    "dogs":"",
    "hash":"Good trails - paths and woods",
    "rating":4 
    }, "geometry": { "type": "Point", "coordinates": [ -1.465409, 50.874824 ] } 
    },
{ "type": "Feature", "properties": { 
    "name": "The Drift Inn",
    "garden":"Big garden",
    "parking":"Small parking",
    "beer":"beer: ?",
    "dogs":"",
    "hash":"Good trails - paths and woods, very open",
    "rating":4 
    }, "geometry": { "type": "Point", "coordinates": [ -1.503839, 50.85455 ] } 
    },
{ "type": "Feature", "properties": { 
    "name": "The Turfcutters",
    "garden":"Big garden",
    "parking":"? parking",
    "beer":"beer: ?",
    "dogs":"",
    "hash":"Good trails - paths and woods",
    "rating":5 
    }, "geometry": { "type": "Point", "coordinates": [ -1.470215, 50.802287 ] } 
    },
{ "type": "Feature", "properties": { 
    "name": "The High Corner Inn",
    "garden":"Big garden",
    "parking":"plentiful parking except summertime",
    "beer":"Decent beer",
    "dogs":"Dog friendly",
    "hash":"Good trails - paths and woods",
    "rating":7
     }, "geometry": { "type": "Point", "coordinates": [ -1.721699, 50.895711 ] } 
     },
{ "type": "Feature", "properties": { 
    "name": "The Lamb",
    "garden":"Big garden",
    "parking":"Enough parking opposite",
    "beer":"Decent beer",
    "dogs":"opposite",
    "hash":"Good trails - paths and woods",
    "rating":5 
    }, "geometry": { "type": "Point", "coordinates": [ -1.640943, 50.954744 ] } 
    },
{ "type": "Feature", "properties": { 
    "name": "The Cuckoo",
    "garden":"Big garden",
    "parking":"on-street parking",
    "beer":"Very nice beer",
    "dogs":"Dog friendly",
    "hash":"Good trails - paths and woods, tiny pub",
    "rating":8 
    }, "geometry": { "type": "Point", "coordinates": [ -1.654236, 50.975886 ] } 
    },
{ "type": "Feature", "properties": { 
    "name": "The Sir Walter Tyrell",
    "garden":"Big garden",
    "parking":"Lots of parking",
    "beer":"Decent beer",
    "dogs":"Dog friendly",
    "hash":"Good trails - paths and woods",
    "rating":7 
    }, "geometry": { "type": "Point", "coordinates": [ -1.61926 , 50.913248 ] } 
    },
{ "type": "Feature", "properties": { 
    "name": "The Alice Lisle",
    "garden":"Big garden opposite",
    "parking":"Plentiful parking",
    "beer":"Decent beer",
    "dogs":"Dog friendly",
    "hash":"Good trails - paths and woods",
    "rating":7 
    }, "geometry": { "type": "Point", "coordinates": [ -1.774871, 50.871885 ] } 
    },
{ "type": "Feature", "properties": { 
    "name": "The Redshoot",
    "garden":"Big garden ?",
    "parking":"Decent parking",
    "beer":"Good beer",
    "dogs":"Dog friendly",
    "hash":"Good trails - paths and woods",
    "rating":5
     }, "geometry": { "type": "Point", "coordinates": [ -1.734767, 50.883421 ] } 
     },
{ "type": "Feature", "properties": {
     "name": "The Royal Oak",
     "garden":"Big garden ?",
    "parking":"? parking",
    "beer":"beer: ?",
    "dogs":"",
    "hash":"Good trails - paths and woods",
    "rating":4
     }, "geometry": { "type": "Point", "coordinates": [ -1.431613, 50.826447 ] } 
     },
{ "type": "Feature", "properties": { 
    "name": "The Jolly Sailor",
    "garden":"Big garden",
    "parking":"decent carparking",
    "beer":"beer: ?",
    "dogs":"",
    "hash":"Good trails - paths and woods with seafront",
    "rating":8
     }, "geometry": { "type": "Point", "coordinates": [ -1.339967, 50.826901 ] } 
     },
{ "type": "Feature", "properties": { 
    "name": "The Old Mill",
    "garden":"Big garden",
    "parking":"? parking",
    "beer":"beer: ?",
    "dogs":"Dog friendly",
    "hash":"Good trails - paths and woods Untried",
    "rating":3 
    }, "geometry": { "type": "Point", "coordinates": [ -1.395264, 50.834294 ] } 
    },
{ "type": "Feature", "properties": { 
    "name": "The Waterloo",
    "garden":"Small garden",
    "parking":"on-street parking",
    "beer":"beer: ?",
    "dogs":"",
    "hash":"Good trails - paths and woods",
    "rating":8 
    }, "geometry": { "type": "Point", "coordinates": [ -1.579049, 50.877369 ] } 
    },
{ "type": "Feature", "properties": { 
    "name": "The Filly Inn",
    "garden":"Big garden",
    "parking":"? parking",
    "beer":"beer: ?",
    "dogs":"",
    "hash":"Good trails - paths and woods",
    "rating":6 
    }, "geometry": { "type": "Point", "coordinates": [ -1.572118, 50.801365 ] } 
    },
{ "type": "Feature", "properties": { 
    "name": "The Hobler",
    "garden":"Big garden",
    "parking":"? parking",
    "beer":"beer: ?",
    "dogs":"",
    "hash":"Good trails - paths and woods",
    "rating":5
     }, "geometry": { "type": "Point", "coordinates": [ -1.565917, 50.790419 ] } 
     },
{ "type": "Feature", "properties": { 
    "name": "The Salmon Leap, Totton",
    "garden":"Decent garden",
    "parking":"on-street parking",
    "beer":"beer: ?",
    "dogs":"Dog friendly",
    "hash":"Good trails - paths and woods and water",
    "rating":5 
    }, "geometry": { "type": "Point", "coordinates": [ -1.48749, 50.92423] } 
    },
{ "type": "Feature", "properties": { 
    "name": "The Testwood, Totton",
    "garden":"Big garden",
    "parking":"Decent parking",
    "beer":"beer: ?",
    "dogs":"Dog friendly",
    "hash":"Good trails - paths and woods",
    "rating":4
     }, "geometry": { "type": "Point", "coordinates": [ -1.50398, 50.93092 ] } 
     },
{ "type": "Feature", "properties": { 
    "name": "The Anchor, Eling",
    "garden":"front garden",
    "parking":"on-street parking",
    "beer":"beer: ?",
    "dogs":"Dog friendly",
    "hash":"Good trails - paths and woods",
    "rating":6
     }, "geometry": { "type": "Point", "coordinates": [ -1.48125, 50.91195 ] } 
     },
{ "type": "Feature", "properties": { 
    "name": "The White Buck, Burley",
    "garden":"Big garden",
    "parking":"Good parking",
    "beer":"beer: ?",
    "dogs":"Dog friendly",
    "hash":"Good trails - paths and woods",
    "rating":7
     }, "geometry": { "type": "Point", "coordinates": [ -1.68447, 50.82399 ] } 
     },
{ "type": "Feature", "properties": { 
    "name": "The Queens Head, Burley",
    "garden":"Big garden ?",
    "parking":"on-street parking",
    "beer":"beer: ?",
    "dogs":"",
    "hash":"Good trails - paths and woods",
    "rating":3
     }, "geometry": { "type": "Point", "coordinates": [ -1.70111, 50.82676 ] } 
     },
{ "type": "Feature", "properties": { 
    "name": "The Royal Oak, Downton",
    "garden":"Big garden ?",
    "parking":"? parking",
    "beer":"beer: ?",
    "dogs":"",
    "hash":"Good trails - paths and woods",
    "rating":5
     }, "geometry": { "type": "Point", "coordinates": [ -1.61975, 50.74028 ] } 
     },
{ "type": "Feature", "properties": { 
    "name": "The Gun, Keyhaven",
    "garden":"Big garden?",
    "parking":"on-street parking",
    "beer":"beer: ?",
    "dogs":"",
    "hash":"Good trails - paths and shingle with seafront",
    "rating":4
     }, "geometry": { "type": "Point", "coordinates": [ -1.56834, 50.72204 ] } 
     },
{ "type": "Feature", "properties": { 
    "name": "The Hare and Hounds, Sway",
    "garden":"Big garden?",
    "parking":"? parking",
    "beer":"beer: ?",
    "dogs":"",
    "hash":"Good trails - paths and woods",
    "rating":5
     }, "geometry": { "type": "Point", "coordinates": [ -1.59978, 50.78686 ] } 
     },
{ "type": "Feature", "properties": { 
    "name": "The Rising Sun, Wootton",
    "garden":"Big garden",
    "parking":"Good parking",
    "beer":"beer: ?",
    "dogs":"",
    "hash":"Good trails - paths and woods",
    "rating":4
     }, "geometry": { "type": "Point", "coordinates": [ -1.65681, 50.78435 ] } 
     },
{ "type": "Feature", "properties": { 
    "name": "The Chequers, Pennington",
    "garden":"Big garden opposite",
    "parking":"Small carpark",
    "beer":"beer: ?",
    "dogs":"",
    "hash":"Good trails - paths and woods with seafront",
    "rating":4
     }, "geometry": { "type": "Point", "coordinates": [ -1.54515, 50.74132 ] } 
     }


]
}
